train_id	train_category	train_name	train_lastStopName	position_lat	position_lng	position_bearing
84/80849/18/30/95	S	S 3	St. Margrethen	47.475925	9.493354	10.0
84/414330/18/21/95	RE	RE 2575	Milano Centrale	46.167339	10.133917	190.0
84/364141/18/19/95	TER	TER96456	Pontarlier (F)	46.87096	6.155525	110.0
84/451623/18/19/95	GEX	GEX 903	Zermatt	46.035269	7.75796	210.0
84/242400/18/19/95	RE	RE 1354	Landquart	46.90965	9.798466	140.0
84/269912/18/19/95	IRE	IRE 4211	Lindau Hbf	47.729403	9.609414	200.0
84/25571/18/21/95	ICN	ICN 526	Genève-Aéroport	46.865099	6.741451	200.0
